stop_code,name,lat,lon,routes_array
OW001,Picolabs Headquarters,40.25372,-111.658465,ROUTE1-ROUTE3
OW002,Open West,40.579094,-111.890715,ROUTE1-ROUTE2
OW003,Temple Square,40.771428,-111.890477,ROUTE1-ROUTE2
OW004,Utah State Capitol,40.778103,-111.890371,ROUTE2-ROUTE3
OW005,This is the Place State Park,40.753038,-111.814938,ROUTE3
